{
    "data": [
        {
            "no": "1",
            "dealer_name": "PT Indomobil Prima Niaga-Jakarta",
            "status": "Main Dealer",
            "province": "DKI JAKARTA",
            "city": "Jakarta Utara ST",
            "address": "Kompleks Sunter Agung Podomoro, Jl. Danau Sunter Selatan, Blok O/III Kav. 55 - 56, Jakarta Utara",
            "latlng": "-6.142585611196067, 106.88289704252458",
            "grade": "A",
            "facility": "3S"
        },
        {
            "no": "2",
            "dealer_name": "PT Indomobil Prima Niaga-Jakarta",
            "status": "Branch",
            "province": "DKI JAKARTA",
            "city": "Jakarta Utara DM",
            "address": "Jl. Raya Daan Mogot No.116, Wijaya Kusuma, Kec. Grogol petamburan, Kota Jakarta Barat, Daerah Khusus Ibukota Jakarta 11410",
            "latlng": "-6.164292456543118, 106.77865245892276",
            "grade": "C",
            "facility": "3S"
        },
        {
            "no": "3",
            "dealer_name": "PT Indomobil Prima Niaga-Jakarta",
            "status": "Branch",
            "province": "BANTEN",
            "city": "Tangerang Selatan",
            "address": "Jl. Tekno Widya, Ruko Buolevard Tekno Blok F 12 -15 BSD, Tangerang Selatan",
            "latlng": "-6.311329656307385, 106.75439784362672",
            "grade": "C",
            "facility": "3S"
        },
        {
            "no": "4",
            "dealer_name": "PT Indomobil Prima Niaga-Jakarta",
            "status": "Branch",
            "province": "DKI JAKARTA",
            "city": "Jakarta Timur TMG",
            "address": "Jl. Tomang Raya No.5D, Tomang, Kec. Grogol petamburan, Daerah Khusus Ibukota Jakarta 11440",
            "latlng": "-6.17848602089562, 106.79735889463267",
            "grade": null,
            "facility": "1S"
        },
        {
            "no": "5",
            "dealer_name": "PT Indomobil Prima Niaga-Jakarta",
            "status": "Branch",
            "province": "BANTEN",
            "city": "Balaraja",
            "address": "Jl. Raya Serang No.Km. 35, RT.015/RW.03, Warung Doyong, Cikande, Kec. Jayanti, Kabupaten Tangerang, Banten 15610",
            "latlng": "-6.202403857216901, 106.38788238294201",
            "grade": "A",
            "facility": "2S"
        },
        {
            "no": "6",
            "dealer_name": "PT Hibaindo Armada Motor",
            "status": "Main Dealer",
            "province": "DKI JAKARTA",
            "city": "Jakarta Timur HAM",
            "address": "Jl. Raya Bekasi KM 22 Cakung Bar., Kec. Cakung, Kota Jakarta Timur, Daerah Khusus Ibukota Jakarta, 13910",
            "latlng": "-6.183528466311685, 106.9268502953536",
            "grade": "A",
            "facility": "3S"
        },
        {
            "no": "7",
            "dealer_name": "PT Hibaindo Armada Motor",
            "status": "Branch",
            "province": "BANTEN",
            "city": "Cilegon",
            "address": "Jl. Raya Waringin Kurung No.7, Serdang, Kec. Kramatwatu, Serang, Banten 42171",
            "latlng": "-6.068391667454619, 106.11323817040068",
            "grade": "B",
            "facility": "3S"
        },
        {
            "no": "8",
            "dealer_name": "PT Hibaindo Armada Motor",
            "status": "Branch",
            "province": "BANTEN",
            "city": "Cikupa",
            "address": "Jl. Raya Serang Km. 19.3 RT.14/06 Baru Johor, Bojong, Kec. Cikupa, Tangerang, Banten 15710",
            "latlng": "-6.208426256281265, 106.49074714166537",
            "grade": "B",
            "facility": "3S"
        },
        {
            "no": "9",
            "dealer_name": "PT Armindo Perkasa",
            "status": "Main Dealer",
            "province": "BANTEN",
            "city": "Tangerang",
            "address": "Jl. Daan Mogot Km 20 No. 8 Batu ceper Tangerang 15222",
            "latlng": "-6.163590324784143, 106.67500189535345",
            "grade": "A",
            "facility": "3S"
        },
        {
            "no": "10",
            "dealer_name": "PT Armindo Perkasa",
            "status": "Branch",
            "province": "JAWA BARAT",
            "city": "Ciawi",
            "address": "Jl. Raya Sukabumi Km. 2 No. 27, Ciawi - Bogor 16720",
            "latlng": "-6.672462745423198, 106.84705205302967",
            "grade": "A",
            "facility": "3S"
        },
        {
            "no": "11",
            "dealer_name": "PT Armindo Perkasa",
            "status": "Branch",
            "province": "BANTEN",
            "city": "Tangerang Selatan",
            "address": "Jl. Ir. H. Juanda no. 62 Pisangan Ciputat Timur",
            "latlng": "-6.311329656307385, 106.75439784362672",
            "grade": "C",
            "facility": "3S"
        },
        {
            "no": "12",
            "dealer_name": "PT Armindo Perkasa",
            "status": "Branch",
            "province": "JAWA BARAT",
            "city": "Cirebon",
            "address": "Jl. Raya Mundu Pesisir No. 89 Desa Mundu Pesisir Kecamatan Mundu Cirebon 45173",
            "latlng": "-6.7516691019512525, 108.58928906588983",
            "grade": "C",
            "facility": "3S"
        },
        {
            "no": "13",
            "dealer_name": "PT Hudaya Maju Mandiri",
            "status": "Main Dealer",
            "province": "JAWA BARAT",
            "city": "Cibitung",
            "address": "Jl. Raya Teuku Umar km.44, Cibitung-Bekasi 17520",
            "latlng": "-6.270307300709177, 107.08885529138442",
            "grade": "A",
            "facility": "3S"
        },
        {
            "no": "14",
            "dealer_name": "PT Hudaya Maju Mandiri",
            "status": "Branch",
            "province": "JAWA BARAT",
            "city": "Sentul",
            "address": "Jl. Alternatif Sentul, Cijujung, Kec. Sukaraja, Kabupaten Bogor, Jawa Barat 16710, Cijujung, Kec. Sukaraja, Kabupaten Bogor, Jawa Barat 16900",
            "latlng": "-6.514757566372779, 106.8380531711858",
            "grade": "B",
            "facility": "3S"
        },
        {
            "no": "15",
            "dealer_name": "PT Bypassindo Jaya Indah",
            "status": "Main Dealer",
            "province": "DKI JAKARTA",
            "city": "Jakarta Pusat",
            "address": "Jl. Jend. Achmad Yani Kav. 52, Jakarta Pusat",
            "latlng": "-6.184281523029944, 106.87538559142091",
            "grade": "A",
            "facility": "3S"
        },
        {
            "no": "16",
            "dealer_name": "PT Bypassindo Jaya Indah",
            "status": "Branch",
            "province": "BANTEN",
            "city": "Tangerang",
            "address": "Jl. MH. Thamrin No.12 A-B, Cikokol, Kec. Tangerang, Kota Tangerang, Banten 15143",
            "latlng": "-6.163590324784143, 106.67500189535345",
            "grade": "C",
            "facility": "3S"
        },
        {
            "no": "17",
            "dealer_name": "PT Bypassindo Jaya Indah",
            "status": "Branch",
            "province": "JAWA BARAT",
            "city": "Bogor",
            "address": "Jl. Raya Narogong KM.21 No.30 Cileungsi Bogor",
            "latlng": "-6.395926404269333, 106.97034935302722",
            "grade": "B",
            "facility": "3S"
        },
        {
            "no": "18",
            "dealer_name": "PT Daya Guna Motor Indonesia",
            "status": "Main Dealer",
            "province": "DKI JAKARTA",
            "city": "Jakarta Utara CM",
            "address": "Jalan Cakung Cilincing Raya Km 6,4 Rt 11/ Rw 4 Semper Barat Jakarta Utara, RW.5, RT.11/RW.4, Semper Bar., Cilincing, Kota Jkt Utara, Daerah Khusus Ibukota Jakarta 14240",
            "latlng": "-6.132770736050794, 106.93309576651725",
            "grade": "A",
            "facility": "3S"
        },
        {
            "no": "19",
            "dealer_name": "PT Daya Guna Motor Indonesia",
            "status": "Branch",
            "province": "JAWA BARAT",
            "city": "Cikampek",
            "address": "Jl. Jenderal Sudirman No. 10, Kota Baru, Cikampek 41373",
            "latlng": "-6.409273073337328, 107.48211944409269",
            "grade": "B",
            "facility": "3S"
        },
        {
            "no": "20",
            "dealer_name": "PT Daya Guna Motor Indonesia",
            "status": "Branch",
            "province": "DKI JAKARTA",
            "city": "Jakarta Utara KG",
            "address": "Bukit Gading Indah Blok O No. 12, Kelapa Gading, Jakarta Utara",
            "latlng": "-6.16090452272346, 106.8938754530251",
            "grade": null,
            "facility": "1S"
        },
        {
            "no": "21",
            "dealer_name": "PT Daya Guna Motor Indonesia",
            "status": "Branch",
            "province": "DKI JAKARTA",
            "city": "Jakarta Barat",
            "address": "Jl. Lingkar Luar Ring Road, Komplek Golf Lake, Ruko Venice Blok B no.78, Cengkareng, Jakarta Barat 11730",
            "latlng": "-6.134199643566997, 106.72955590884555",
            "grade": null,
            "facility": "1S"
        },
        {
            "no": "22",
            "dealer_name": "PT Daya Guna Motor Indonesia",
            "status": "Branch",
            "province": "JAWA BARAT",
            "city": "Bandung DMI",
            "address": "Jl. Raya Kopo 246B, Kel. Suka Asih, Kec. Bojongload Kaler,  Bandung 40233",
            "latlng": "-6.937611736636421, 107.59430245303236",
            "grade": "C",
            "facility": "3S"
        },
        {
            "no": "23",
            "dealer_name": "PT Arista Jaya Niaga",
            "status": "Main Dealer",
            "province": "JAWA BARAT",
            "city": "Cikarang",
            "address": "Jalan Raya Bekasi Karawang Kp Mareleng Kec Kedung Waringin Bekasi  Jawa Barat",
            "latlng": "-6.266530306045934, 107.24643750732949",
            "grade": "A",
            "facility": "3S"
        },
        {
            "no": "24",
            "dealer_name": "PT Arista Jaya Niaga",
            "status": "Branch",
            "province": "JAWA BARAT",
            "city": "Citeureup",
            "address": "Jl. Raya Mayor Oking Jaya Atmaja No.29, Karang Asem Bar., Kec. Citeureup, Bogor, Jawa Barat 16810",
            "latlng": "-6.480901653498601, 106.86901089991342",
            "grade": "C",
            "facility": "3S"
        },
        {
            "no": "25",
            "dealer_name": "PT Maya Graha Indah",
            "status": "Main Dealer",
            "province": "JAWA BARAT",
            "city": "Bandung",
            "address": "Jl. Soekarno Hatta 481, Bandung",
            "latlng": "-6.965792601660925, 107.82107539536084",
            "grade": "A",
            "facility": "3S"
        },
        {
            "no": "26",
            "dealer_name": "PT Maya Graha Indah",
            "status": "Branch",
            "province": "JAWA BARAT",
            "city": "Tasikmalaya",
            "address": "Jl. Dr. Moh.Hatta No. 158, Tasikmalaya",
            "latlng": "-7.3156768862707775, 108.22772950380174",
            "grade": "B",
            "facility": "3S"
        },
        {
            "no": "27",
            "dealer_name": "PT Maya Graha Indah",
            "status": "Branch",
            "province": "JAWA BARAT",
            "city": "Cibiru",
            "address": "Jl. Soekarno Hatta No.768 (Bundaran Cibiru), Bandung",
            "latlng": "-6.93279032307651, 107.71819218678782",
            "grade": "A",
            "facility": "2S"
        },
        {
            "no": "28",
            "dealer_name": "PT Indo Sentosa Trada",
            "status": "Main Dealer",
            "province": "JAWA BARAT",
            "city": "Bandung",
            "address": "Jl. Raya Rancaekek KM. 26 No. 201 Desa Sindang Pakuwon Kec. Cimanggu, Kab. Sumedang",
            "latlng": "-6.965792601660925, 107.82107539536084",
            "grade": "A",
            "facility": "3S"
        },
        {
            "no": "29",
            "dealer_name": "PT Indo Sentosa Trada",
            "status": "Branch",
            "province": "JAWA BARAT",
            "city": "Cimahi",
            "address": "RUKO BANDUNG BARAT DI JL. RAYA CIBURUY NO. 171 KAB. BANDUNG BARAT",
            "latlng": "-6.838654405553676, 107.4757129596515",
            "grade": "C",
            "facility": "3S"
        },
        {
            "no": "30",
            "dealer_name": "PT. Hino Motors Sales Indonesia",
            "status": "Branch",
            "province": "BANTEN",
            "city": "Tangerang",
            "address": "Jl. Gatot Subroto Km. 8, 5, Manis Jaya, Jatiuwung, Kota Tangerang, Banten 15111",
            "latlng": "-6.163590324784143, 106.67500189535345",
            "grade": "A",
            "facility": "2S"
        },
        {
            "no": "31",
            "dealer_name": "PT Cemaco Makmur Corporatama",
            "status": "Main Dealer",
            "province": "JAWA TENGAH",
            "city": "Ungaran",
            "address": "Jl. Perintis Kemerdekaan No. 42, Pudakpayung - Ungaran",
            "latlng": "-7.10697913071028, 110.41133940920008",
            "grade": "A",
            "facility": "3S"
        },
        {
            "no": "32",
            "dealer_name": "PT Cemaco Makmur Corporatama",
            "status": "Branch",
            "province": "JAWA TENGAH",
            "city": "Semarang",
            "address": "Jl. Raya Semarang Demak Km. 7 (Genuk), Semarang",
            "latlng": "-7.103288046663867, 110.41003568126989",
            "grade": "B",
            "facility": "3S"
        },
        {
            "no": "33",
            "dealer_name": "PT Cemaco Makmur Corporatama",
            "status": "Branch",
            "province": "JAWA TENGAH",
            "city": "Tegal",
            "address": "Jl. Raya Tegal – Pemalang Km. 10 Maribaya, Kramat, Tegal",
            "latlng": "-6.867845659415467, 109.22038041567797",
            "grade": "B",
            "facility": "3S"
        },
        {
            "no": "34",
            "dealer_name": "PT Cemaco Makmur Corporatama",
            "status": "Branch",
            "province": "JAWA TENGAH",
            "city": "Cilacap",
            "address": "Jl. Urip Sumoharjo No. 184, Cilacap, Jawa Tengah",
            "latlng": "-7.672839359846657, 109.05892301738385",
            "grade": "C",
            "facility": "3S"
        },
        {
            "no": "35",
            "dealer_name": "PT Cemaco Makmur Corporatama",
            "status": "Branch",
            "province": "JAWA TENGAH",
            "city": "Kudus",
            "address": "Lingkar Kudus - Pati Km 4 Jati, Kudus - Jawa Tengah",
            "latlng": "-6.842617947783934, 110.84204480769161",
            "grade": "B",
            "facility": "3S"
        },
        {
            "no": "36",
            "dealer_name": "PT Cemaco Makmur Corporatama",
            "status": "Branch",
            "province": "JAWA TENGAH",
            "city": "Purwokerto",
            "address": "Jl. Veteran No.50, Dukuh, Rejasari, Kec. Purwokerto Bar., Kabupaten Banyumas, Jawa Tengah 53137",
            "latlng": "-7.413043035589562, 109.21393371266312",
            "grade": "C",
            "facility": "3S"
        },
        {
            "no": "37",
            "dealer_name": "PT Cemaco Makmur Corporatama",
            "status": "Branch",
            "province": "JAWA TENGAH",
            "city": "Pekalongan",
            "address": "Jl. Dr. Sutomo, RT.04/RW.02, Gamer, Kec. Kandeman, Kabupaten Batang, Jawa Tengah 51261",
            "latlng": "-6.903954686013179, 109.70409594367088",
            "grade": "C",
            "facility": "3S"
        },
        {
            "no": "38",
            "dealer_name": "PT Duta Cemerlang Motor",
            "status": "Main Dealer",
            "province": "JAWA TENGAH",
            "city": "Semarang Barat",
            "address": "Jl. Urip Sumoharjo No.123 Kelurahan Wonosari, Kecamatan Ngaliyan, Kab. Kendal",
            "latlng": "-6.97475915172574, 110.31601081487315",
            "grade": "A",
            "facility": "3S"
        },
        {
            "no": "39",
            "dealer_name": "PT Duta Cemerlang Motor",
            "status": "Branch",
            "province": "JAWA TENGAH",
            "city": "Semarang",
            "address": "Jl. Raya Kaligawe 33, Semarang",
            "latlng": "-7.103288046663867, 110.41003568126989",
            "grade": "A",
            "facility": "3S"
        },
        {
            "no": "40",
            "dealer_name": "PT Duta Cemerlang Motor",
            "status": "Branch",
            "province": "JAWA TENGAH",
            "city": "Magelang",
            "address": "Komplek Grand Viko No.21-22 Soekarno Hatta Magelang",
            "latlng": "-7.489174397071625, 110.23487036653027",
            "grade": "C",
            "facility": "3S"
        },
        {
            "no": "41",
            "dealer_name": "PT Duta Cemerlang Motor",
            "status": "Branch",
            "province": "JAWA TENGAH",
            "city": "Sragen",
            "address": "Jl. Raya Solo Sragen KM 22 Masaran Sragen",
            "latlng": "-7.458585987927149, 110.95571586062569",
            "grade": "B",
            "facility": "3S"
        },
        {
            "no": "42",
            "dealer_name": "PT Duta Cemerlang Motor",
            "status": "Branch",
            "province": "JAWA TENGAH",
            "city": "Semarang",
            "address": "Desa Butuh Rt. 22 Rw. 11 Tengaran Kab. Semarang",
            "latlng": "-7.103288046663867, 110.41003568126989",
            "grade": "C",
            "facility": "3S"
        },
        {
            "no": "43",
            "dealer_name": "PT Duta Cemerlang Motor",
            "status": "Branch",
            "province": "JAWA TENGAH",
            "city": "Kebumen",
            "address": "Jl. Kutoarjo, Jatisalam, Jatisari, Kec. Kebumen, Kabupaten Kebumen, Jawa Tengah 54312",
            "latlng": "-7.698155467066133, 109.70076347687343",
            "grade": "C",
            "facility": "3S"
        },
        {
            "no": "44",
            "dealer_name": "PT Duta Cemerlang Motor",
            "status": "Branch",
            "province": "JAWA TENGAH",
            "city": "Boyolali",
            "address": "Jl. Raya Boyolali-Semarang, Dusun II, Mojolegi, Kec. Teras, Kabupaten Boyolali, Jawa Tengah 57372",
            "latlng": "-7.535487668934586, 110.66161388002321",
            "grade": "A",
            "facility": "2S"
        },
        {
            "no": "45",
            "dealer_name": "PT Duta Cemerlang Motor",
            "status": "Branch",
            "province": "JAWA TENGAH",
            "city": "Banjarnegara",
            "address": "Jl. Letjend Suprapto No 232 Rt. 001/001 Ds. Wangon, Kec. Banjarnegara, Kab. Banjarnegara",
            "latlng": "-7.399378649424375, 109.67651862654621",
            "grade": "C",
            "facility": "3S"
        },
        {
            "no": "46",
            "dealer_name": "PT Mitra Pratama Mobilindo",
            "status": "Main Dealer",
            "province": "JAWA TENGAH",
            "city": "Solo",
            "address": "Jl. Raya Kertasura Km. 5, Solo",
            "latlng": "-7.5332603964326355, 110.75776024563302",
            "grade": "A",
            "facility": "3S"
        },
        {
            "no": "47",
            "dealer_name": "PT Mitra Pratama Mobilindo",
            "status": "Branch",
            "province": "D I  YOGYAKARTA",
            "city": "Sleman",
            "address": "Jl. Magelang Km. 14 Sleman Jogjakarta",
            "latlng": "-7.656006509279719, 110.34502090835586",
            "grade": "B",
            "facility": "3S"
        },
        {
            "no": "48",
            "dealer_name": "PT Mitra Pratama Mobilindo",
            "status": "Branch",
            "province": "D I  YOGYAKARTA",
            "city": "Bantul",
            "address": "Jl. Wates KM. 14.5 Klangon - Bantul - Yogjakarta",
            "latlng": "-7.965929268505439, 110.60543903426374",
            "grade": "C",
            "facility": "3S"
        },
        {
            "no": "49",
            "dealer_name": "PT Duta Cemerlang Motor",
            "status": "Branch",
            "province": "D I  YOGYAKARTA",
            "city": "Rewulu",
            "address": "Jalan Wates Km.7,5, Kios Pasar Balecatur Blok F No, RT.1/RW.4, Ngaran, Balecatur, Kec. Gamping, Kabupaten Sleman, Daerah Istimewa Yogyakarta 55295",
            "latlng": "-7.7897708816322195, 110.2930300300164",
            "grade": "B",
            "facility": "2S"
        },
        {
            "no": "50",
            "dealer_name": "PT Catur Kokoh Mobil Nasional",
            "status": "Main Dealer",
            "province": "JAWA TIMUR",
            "city": "Kalianak",
            "address": "Jln. Kalianak Timur 352 B Surabaya",
            "latlng": "-7.2291756229571575, 112.70941885773996",
            "grade": "A",
            "facility": "3S"
        },
        {
            "no": "51",
            "dealer_name": "PT Catur Kokoh Mobil Nasional",
            "status": "Branch",
            "province": "JAWA TIMUR",
            "city": "Blitar",
            "address": "Jln. Lingkungan Dadapan No. RT.001 RW.002, Kel. Sumberdiren, Kec. Garum Blitar",
            "latlng": "-8.072876394100525, 112.21110751071599",
            "grade": "B",
            "facility": "3S"
        },
        {
            "no": "52",
            "dealer_name": "PT Catur Kokoh Mobil Nasional",
            "status": "Branch",
            "province": "JAWA TIMUR",
            "city": "Mojokerto",
            "address": "Jl. Raya Brangkal No.20. Mojokerto",
            "latlng": "-7.519892570929255, 112.41790619425635",
            "grade": "B",
            "facility": "3S"
        },
        {
            "no": "53",
            "dealer_name": "PT Catur Kokoh Mobil Nasional",
            "status": "Branch",
            "province": "JAWA TIMUR",
            "city": "Gresik",
            "address": "Banjai Sari, Banjarsari, Cerme, Gresik Regency, East Java",
            "latlng": "-7.169961462855918, 112.58088960321099",
            "grade": "B",
            "facility": "2S"
        },
        {
            "no": "54",
            "dealer_name": "PT Indomobil Prima Niaga-Surabaya",
            "status": "Main Dealer",
            "province": "JAWA TIMUR",
            "city": "Sidoarjo",
            "address": "Jl. Raya Kletek No. 9, Taman, Sidoarjo",
            "latlng": "-7.35904031678823, 112.67916405963958",
            "grade": "A",
            "facility": "3S"
        },
        {
            "no": "55",
            "dealer_name": "PT Indomobil Prima Niaga-Surabaya",
            "status": "Branch",
            "province": "JAWA TIMUR",
            "city": "Malang",
            "address": "Jl. Singosari No.182 malang Jawa Timur",
            "latlng": "-7.899270644122442, 112.66318353046844",
            "grade": "B",
            "facility": "3S"
        },
        {
            "no": "56",
            "dealer_name": "PT Indomobil Prima Niaga-Surabaya",
            "status": "Branch",
            "province": "JAWA TIMUR",
            "city": "Kediri",
            "address": "Jl. Raya Kediri – Kertosono Km 9, Kel. Ngebrak Kec. Gampengrejo – Kediri",
            "latlng": "-7.744035420930703, 112.03807534795652",
            "grade": "B",
            "facility": "3S"
        },
        {
            "no": "57",
            "dealer_name": "PT Indomobil Prima Niaga-Surabaya",
            "status": "Branch",
            "province": "JAWA TIMUR",
            "city": "Surabaya",
            "address": "Jl. Jemursari No. 3, Jemur Wonosari, Wonocolo Surabaya",
            "latlng": "-7.321675420074352, 112.736106224505",
            "grade": "C",
            "facility": "3S"
        },
        {
            "no": "58",
            "dealer_name": "PT Indomobil Prima Niaga-Surabaya",
            "status": "Branch",
            "province": "JAWA TIMUR",
            "city": "Probolinggo",
            "address": "Jl. Raya Bromo Komplek Pergudangan No. 57 F - Probolinggo",
            "latlng": "-7.770725408075538, 113.17148864625997",
            "grade": "C",
            "facility": "3S"
        },
        {
            "no": "59",
            "dealer_name": "PT Indomobil Prima Niaga-Surabaya",
            "status": "Branch",
            "province": "JAWA TIMUR",
            "city": "Tuban",
            "address": "Jl. Panglima Sudirman No.140 - Tuban",
            "latlng": "-6.880864564624089, 112.04554214528888",
            "grade": "C",
            "facility": "3S"
        },
        {
            "no": "60",
            "dealer_name": "PT Indomobil Prima Niaga-Surabaya",
            "status": "Branch",
            "province": "JAWA TIMUR",
            "city": "Madiun",
            "address": "Jl. Trunojaya no.142 Madiun - Jawa Timur",
            "latlng": "-7.646515090045173, 111.51791248002448",
            "grade": "C",
            "facility": "3S"
        },
        {
            "no": "61",
            "dealer_name": "PT Indomobil Prima Niaga-Surabaya",
            "status": "Branch",
            "province": "JAWA TIMUR",
            "city": "Pasuruan",
            "address": "Jl. Surabaya - Malang Desa Ngerong, Kecamatan Gempol Pasuruan",
            "latlng": "-7.592094862424154, 112.69063942456773",
            "grade": "B",
            "facility": "2S"
        },
        {
            "no": "62",
            "dealer_name": "PT Indomobil Prima Niaga-Surabaya",
            "status": "Branch",
            "province": "JAWA TIMUR",
            "city": "Banyuwangi",
            "address": "Jl. Argopuro No.24 Desa Sukowidi, Banyuwangi - Jawa Timur",
            "latlng": "-8.191611455251259, 114.37413444544435",
            "grade": "B",
            "facility": "2S"
        },
        {
            "no": "63",
            "dealer_name": "PT Indomobil Prima Niaga-Surabaya",
            "status": "Branch",
            "province": "JAWA TIMUR",
            "city": "Surabaya",
            "address": "Jl Raya Jemursari No 56A Kelurahan Jemur Wonosari Kecamatan Wonocolo Kota Surabaya 60237",
            "latlng": "-7.321675420074352, 112.736106224505",
            "grade": "B",
            "facility": "2S"
        },
        {
            "no": "64",
            "dealer_name": "PT Cahaya Surya Bali Indah",
            "status": "Main Dealer",
            "province": "BALI",
            "city": "Denpasar",
            "address": "Jl. Cokroaminoto No. 470 Denpasar",
            "latlng": "-8.612807065434561, 115.19286617991125",
            "grade": "A",
            "facility": "3S"
        },
        {
            "no": "65",
            "dealer_name": "PT Cahaya Surya Bali Indah",
            "status": "Branch",
            "province": "BALI",
            "city": "Singaraja",
            "address": "Jl. Raya celuk buluh.Singaraja",
            "latlng": "-8.15255760211522, 115.04075885119416",
            "grade": "C",
            "facility": "3S"
        },
        {
            "no": "66",
            "dealer_name": "PT Cahaya Surya Bali Indah",
            "status": "Branch",
            "province": "BALI",
            "city": "Karangasem",
            "address": "Jl. Untung Surapati Amlapura - Karangasem",
            "latlng": "-8.443426918995787, 115.60060036710226",
            "grade": "C",
            "facility": "3S"
        },
        {
            "no": "67",
            "dealer_name": "PT Indomobil Cahaya Prima",
            "status": "Main Dealer",
            "province": "NUSA TENGGARA BARAT",
            "city": "Mataram",
            "address": "Jl. A. Yani Km. 9 Dasan Tereng, Narmada, Lombok Barat 83371 NTB",
            "latlng": "-8.599235644789935, 116.1827393530504",
            "grade": "A",
            "facility": "3S"
        },
        {
            "no": "68",
            "dealer_name": "PT Indomobil Cahaya Prima",
            "status": "Branch",
            "province": "NUSA TENGGARA TIMUR",
            "city": "Kupang",
            "address": "Jl. Timor Raya, Oesapa Barat, Kelapa Lima, Kupang",
            "latlng": "-10.149871884902959, 123.64021716313734",
            "grade": "C",
            "facility": "3S"
        },
        {
            "no": "69",
            "dealer_name": "PT Indomobil Cahaya Prima",
            "status": "Branch",
            "province": "NUSA TENGGARA BARAT",
            "city": "Sumbawa",
            "address": "Komplek Pertokoan Graha Elitet, Blok A7-A8",
            "latlng": "-8.532127059339727, 117.44031991258711",
            "grade": "C",
            "facility": "3S"
        },
        {
            "no": "70",
            "dealer_name": "PT Indomobil Prima Niaga-Medan",
            "status": "Main Dealer",
            "province": "SUMATERA UTARA",
            "city": "Medan SMR",
            "address": "Jl. Sisingamangaraja Km. 7,3 No. 38, Medan",
            "latlng": "3.5411972216647096, 98.70949743306261",
            "grade": "A",
            "facility": "3S"
        },
        {
            "no": "71",
            "dealer_name": "PT Indomobil Prima Niaga-Medan",
            "status": "Branch",
            "province": "SUMATERA UTARA",
            "city": "Medan RR",
            "address": "Jl. Gagak Hitam No. 12 kel. Tanjung rejo Kec. Medan Sunggal 20122",
            "latlng": "3.579130956059548, 98.62755566673388",
            "grade": "C",
            "facility": "3S"
        },
        {
            "no": "72",
            "dealer_name": "PT Indomobil Prima Niaga-Sidempuan",
            "status": "Branch",
            "province": "SUMATERA UTARA",
            "city": "Padang Sidempuan",
            "address": "Jl. HT. Rizal Nurdin Km. 4.5 Sihitang, Kec. Padang Sidempuan Tenggara, Kota Padang Sidempuan",
            "latlng": "1.352609463745486, 99.287906980264",
            "grade": "B",
            "facility": "3S"
        },
        {
            "no": "73",
            "dealer_name": "PT Trans Indo Utama",
            "status": "Main Dealer",
            "province": "SUMATERA UTARA",
            "city": "Medan TIU",
            "address": "Jl. Cemara No.37A, Lingkungani, Kel. PBB Baru, Kec Medan Timur",
            "latlng": "3.6299755572178056, 98.68778261253031",
            "grade": "A",
            "facility": "3S"
        },
        {
            "no": "74",
            "dealer_name": "PT Trans Indo Utama",
            "status": "Branch",
            "province": "SUMATERA UTARA",
            "city": "Rantauprapat",
            "address": "Jl. H. Adam Malik, Siringo-Ringo, Rantau Utara, Kabupaten Labuhan Batu, Sumatera Utara 21411",
            "latlng": "2.0645349790710137, 99.84826960445012",
            "grade": "B",
            "facility": "3S"
        },
        {
            "no": "75",
            "dealer_name": "PT Trans Indo Utama",
            "status": "Branch",
            "province": "SUMATERA UTARA",
            "city": "Pematang Siantar",
            "address": "Jl. Medan No.km.7 no.88, Tambun Nabolon, Siantar Martoba, Pematang Siantar city, North Sumatra 21154",
            "latlng": "3.0051455023528546, 99.08394107470531",
            "grade": "C",
            "facility": "3S"
        },
        {
            "no": "76",
            "dealer_name": "PT Indomobil Prima Niaga-Aceh",
            "status": "Main Dealer",
            "province": "NANGGROE ACEH DARUSSALAM",
            "city": "Banda Aceh",
            "address": "Jl. Soekarno Hatta, Gp. Lampeuneurut Ujong Blang Kec. Darul Imarah Kab. Aceh Besar 23352",
            "latlng": "5.524994813692972, 95.32218275362234",
            "grade": "A",
            "facility": "3S"
        },
        {
            "no": "77",
            "dealer_name": "PT Indomobil Prima Niaga-Aceh",
            "status": "Branch",
            "province": "NANGGROE ACEH DARUSSALAM",
            "city": "Lhokseumawe",
            "address": "Jl. Banda Aceh – Medan Km. 268 No. 88 Simpang Ardath Desa Mns. Mesjid Kec. Muara Dua Kota Lhokseumawe 24351",
            "latlng": "5.17907885262347, 97.12407967054999",
            "grade": "C",
            "facility": "3S"
        },
        {
            "no": "78",
            "dealer_name": "PT Jaya Indah Motor",
            "status": "Main Dealer",
            "province": "JAMBI",
            "city": "Jambi",
            "address": "Jl. Lingkar Barat RT 20 Kelurahan Kenali Asam Bawah Kec. Kota Baru Jambi",
            "latlng": "-1.661377360969291, 103.59534203947511",
            "grade": "A",
            "facility": "3S"
        },
        {
            "no": "79",
            "dealer_name": "PT Jaya Indah Motor",
            "status": "Branch",
            "province": "JAMBI",
            "city": "Muara Bungo",
            "address": "Jl. Lintas Sumatra Km. 3, Muara Bungo",
            "latlng": "-1.4981403678169203, 102.10327693114569",
            "grade": "C",
            "facility": "3S"
        },
        {
            "no": "80",
            "dealer_name": "PT Vima Bungamas",
            "status": "Branch",
            "province": "SUMATERA BARAT",
            "city": "Bukittinggi",
            "address": "Jl. By Pass, Aur Kuning, Kec. Aur Birugo Tigo Baleh, Kota Bukittinggi, Sumatera Barat",
            "latlng": "-0.8674156285807484, 100.37994041098052",
            "grade": "C",
            "facility": "3S"
        },
        {
            "no": "81",
            "dealer_name": "PT Vima Bungamas",
            "status": "Main Dealer",
            "province": "SUMATERA BARAT",
            "city": "Padang",
            "address": "Jl. Bypass Km. 16 Kelurahan Air Pacah, Kec. Koto Tangah,Padang Sumatera Barat",
            "latlng": "-0.8674156285807484, 100.37994041098052",
            "grade": "A",
            "facility": "3S"
        },
        {
            "no": "82",
            "dealer_name": "PT Vima Bungamas",
            "status": "Branch",
            "province": "SUMATERA BARAT",
            "city": "Solok",
            "address": "Jl. Nasir ST. Pamuncak No.24-26, Kota Solok",
            "latlng": "-0.8674156285807484, 100.37994041098052",
            "grade": "C",
            "facility": "3S"
        },
        {
            "no": "83",
            "dealer_name": "PT Vima Bungamas",
            "status": "Branch",
            "province": "SUMATERA BARAT",
            "city": "Dharmasraya",
            "address": "Jl. Lintas Tengah Sumatera, Sungai Dareh, Kec. Pulau Punjung, Kabupaten Dharmasraya, Sumatera Barat 27573",
            "latlng": "-0.9723850413355891, 101.52871361979471",
            "grade": "B",
            "facility": "2S"
        },
        {
            "no": "84",
            "dealer_name": "PT Vima Bungamas",
            "status": "Branch",
            "province": "SUMATERA BARAT",
            "city": "Padang",
            "address": "Batipuh Panjang, Kec. Koto Tangah, Kota Padang, Sumatera Barat",
            "latlng": "-0.8674156285807484, 100.37994041098052",
            "grade": "A",
            "facility": "2S"
        },
        {
            "no": "85",
            "dealer_name": "PT Gita Riau Makmur",
            "status": "Main Dealer",
            "province": "RIAU",
            "city": "Pekanbaru",
            "address": "Jl. Kaharudin Nasution KM. 12, Kel. Simpang Tiga Kec. Bukit Raya, Kota Pekanbaru, Riau",
            "latlng": "0.4456141596510675, 101.43231906889484",
            "grade": "A",
            "facility": "3S"
        },
        {
            "no": "86",
            "dealer_name": "PT Gita Riau Makmur",
            "status": "Branch",
            "province": "RIAU",
            "city": "Belillas",
            "address": "Jl. Lintas Sumatra, Sungai Dawu, Kec. Rengat Bar., Kabupaten Indragiri Hulu, Riau",
            "latlng": "-0.3925297126375848, 102.43520442490578",
            "grade": null,
            "facility": "1S"
        },
        {
            "no": "87",
            "dealer_name": "PT Gita Riau Makmur",
            "status": "Branch",
            "province": "RIAU",
            "city": "Duri",
            "address": "Jl. Hang Tuah No. 474 C-D, RT 002/ RW 005, Air Jamban, Mandau Bengkalis, Duri, Riau",
            "latlng": "1.3121198675631978, 101.18489405189436",
            "grade": "C",
            "facility": "3S"
        },
        {
            "no": "88",
            "dealer_name": "PT Gita Riau Makmur",
            "status": "Branch",
            "province": "RIAU",
            "city": "Pangkalan Kerinci",
            "address": "Jl. Lintas Timur Simpang Kuato. Kec. Pangkalan Kerinci. Kabupaten Pelalawan",
            "latlng": "0.47141318831363094, 101.826337529725",
            "grade": "C",
            "facility": "3S"
        },
        {
            "no": "89",
            "dealer_name": "PT Gita Riau Makmur",
            "status": "Branch",
            "province": "RIAU",
            "city": "Ujungbatu",
            "address": "Jl Jend Sudirman, Ujung Batu Tim., Ujung Batu, Kabupaten Rokan Hulu, Riau 28557, Indonesia (Samping Bank Mega Ujungbatu)",
            "latlng": "0.7073720156923957, 100.53812117998366",
            "grade": null,
            "facility": "1S"
        },
        {
            "no": "90",
            "dealer_name": "PT Gita Riau Makmur",
            "status": "Branch",
            "province": "RIAU",
            "city": "SM Amin",
            "address": "Jl. SM Amin, Simpang Baru, Kec. Tampan, Kota Pekanbaru, Riau 28292",
            "latlng": "0.4886818969776521, 101.40304020709236",
            "grade": "C",
            "facility": "3S"
        },
        {
            "no": "91",
            "dealer_name": "PT Genta Lampung Makmur",
            "status": "Main Dealer",
            "province": "BENGKULU",
            "city": "Bengkulu",
            "address": "Jl. Depati payung negara Rt/Rw 04/01 Kel. Betungan Kec.Selebar Kota Bengkulu",
            "latlng": "-3.8676858066689523, 102.34989245545006",
            "grade": "A",
            "facility": "3S"
        },
        {
            "no": "92",
            "dealer_name": "PT Genta Lampung Makmur",
            "status": "Branch",
            "province": "BENGKULU",
            "city": "Mukomuko",
            "address": "Jl. Padang - Bengkulu, Sidodadi, Kec. Penarik, Kabupaten Mukomuko, Bengkulu 38768.",
            "latlng": "-2.626592555873988, 101.31342022981008",
            "grade": null,
            "facility": "1S"
        },
        {
            "no": "93",
            "dealer_name": "PT Persada Palembang Raya",
            "status": "Main Dealer",
            "province": "SUMATERA SELATAN",
            "city": "Palembang PPR",
            "address": "Jl. Soekarno Hatta RT.006 RW.009 kel. Siring Agung Kec. Ilir Barat I Palembang.",
            "latlng": "-2.96480652932921, 104.71091342054228",
            "grade": "A",
            "facility": "3S"
        },
        {
            "no": "94",
            "dealer_name": "PT Persada Palembang Raya",
            "status": "Branch",
            "province": "SUMATERA SELATAN",
            "city": "Palembang PSR",
            "address": "JL. RE Martadinata PUSRI, Palembang",
            "latlng": "-2.9598511463726918, 104.79495752506145",
            "grade": "C",
            "facility": "3S"
        },
        {
            "no": "95",
            "dealer_name": "PT Persada Palembang Raya",
            "status": "Branch",
            "province": "SUMATERA SELATAN",
            "city": "Lahat PPR",
            "address": "Jl. Lintas Sumatera Desa Sukacinta Kec. Merapi Barat Kab. Lahat",
            "latlng": "-3.7862726700033447, 103.64100612227412",
            "grade": "B",
            "facility": "3S"
        },
        {
            "no": "96",
            "dealer_name": "PT Persada Palembang Raya",
            "status": "Branch",
            "province": "SUMATERA SELATAN",
            "city": "Prabumulih",
            "address": "Jl. Raya Palembang - Jambi 14, Sungai Lilin, Kec. Sungai Lilin, Kabupaten Musi Banyuasin, Sumatera Selatan 30755",
            "latlng": "-3.388960827091441, 104.26934705736106",
            "grade": "C",
            "facility": "3S"
        },
        {
            "no": "97",
            "dealer_name": "PT Persada Palembang Raya",
            "status": "Branch",
            "province": "SUMATERA SELATAN",
            "city": "Baturaja",
            "address": "Jl. Jenderal Ahmad Yani Kemelak KM.3,5 No.1016, Jl. Jenderal Ahmad Yani Kemelak KM.3,5 No.1016, Tj. Baru, Kec. Baturaja Timur, Kabupaten Ogan Komering Ulu, Sumatera Selatan 32121",
            "latlng": "-4.140407216441907, 104.17889363664754",
            "grade": "C",
            "facility": "3S"
        },
        {
            "no": "98",
            "dealer_name": "PT Citra Lestari Mobilindo",
            "status": "Main Dealer",
            "province": "SUMATERA SELATAN",
            "city": "Palembang CLM",
            "address": "Jl. Letnan Harun Sohar RT 42 RW 10 Kel. Kebun Bunga  Kecamatan Sukarame Palembang",
            "latlng": "-2.901365062417012, 104.71326051031281",
            "grade": "A",
            "facility": "3S"
        },
        {
            "no": "99",
            "dealer_name": "PT Citra Lestari Mobilindo",
            "status": "Branch",
            "province": "SUMATERA SELATAN",
            "city": "Palembang KP",
            "address": "Jl. Ki Merogan Km. 7 Rt. 33 Rw.06, Kemang Agung - Kertapati, Palembang",
            "latlng": "-3.0378876560654873, 104.75052125757752",
            "grade": "B",
            "facility": "3S"
        },
        {
            "no": "100",
            "dealer_name": "PT Citra Lestari Mobilindo",
            "status": "Branch",
            "province": "SUMATERA SELATAN",
            "city": "Lahat CLM",
            "address": "Jl. Lembayung Kel. Bandar Agung Lahat",
            "latlng": "-3.7832588554742896, 103.56436823984625",
            "grade": null,
            "facility": "1S"
        },
        {
            "no": "101",
            "dealer_name": "PT Citra Lestari Mobilindo",
            "status": "Branch",
            "province": "SUMATERA SELATAN",
            "city": "Sekayu",
            "address": "Jl. Kol. Wahid Udin Lk. II Kel. Kayuara Kec. Sekayu, Musi Banyuasin Ruko Thamrin Brothers No. 1 & 2",
            "latlng": "-2.8888542196795473, 103.85924826826717",
            "grade": null,
            "facility": "1S"
        },
        {
            "no": "102",
            "dealer_name": "PT Citra Lestari Mobilindo",
            "status": "Branch",
            "province": "SUMATERA SELATAN",
            "city": "Lubuk Linggau",
            "address": "Jl. Yos Sudarso No.95, RT.010, Batu Urip Taba, Kec. Lubuk Linggau Tim. I, Kota Lubuklinggau, Sumatera Selatan 31625",
            "latlng": "-3.2779842824970498, 102.89504896650908",
            "grade": null,
            "facility": "1S"
        },
        {
            "no": "103",
            "dealer_name": "PT Persada Lampung Raya",
            "status": "Main Dealer",
            "province": "LAMPUNG",
            "city": "Bandar Lampung",
            "address": "Jalan Raya Hajimena Km 14 Kelurahan Hajimena, Kecamatan Natar Kabupaten Lampung Selatan",
            "latlng": "-5.350619428566146, 105.21952824865184",
            "grade": "A",
            "facility": "3S"
        },
        {
            "no": "104",
            "dealer_name": "PT Persada Lampung Raya",
            "status": "Branch",
            "province": "LAMPUNG",
            "city": "Bandar Jaya",
            "address": "Jalan Raya Proklamator Kelurahan Bandar Jaya Barat Kecamatan Gunung Sugih Kabupaten Lampung Tengah",
            "latlng": "-4.95032526180069, 105.2162354292522",
            "grade": "B",
            "facility": "3S"
        },
        {
            "no": "105",
            "dealer_name": "PT Persada Lampung Raya",
            "status": "Branch",
            "province": "LAMPUNG",
            "city": "Tulang Bawang",
            "address": "Jalan Raya Lintas Timur Unit II Kelurahan Banjar Agung Kecamatan Banjar Agung Kabupaten Tulang Bawang",
            "latlng": "-4.2897984467249, 105.22028686459966",
            "grade": "C",
            "facility": "3S"
        },
        {
            "no": "106",
            "dealer_name": "PT. Hino Motors Sales Indonesia",
            "status": "Branch",
            "province": "SUMATERA UTARA",
            "city": "Medan HMSI",
            "address": "Jl. Medan - Lubuk Pakam No.KM. 26, Perdamaian, Tj. Morawa, Kabupaten Deli Serdang, Sumatera Utara 20513",
            "latlng": "3.5574616442492313, 98.84801137097612",
            "grade": "A",
            "facility": "2S"
        },
        {
            "no": "107",
            "dealer_name": "PT Rodamas Makmur Motor",
            "status": "Main Dealer",
            "province": "KEPULAUAN RIAU",
            "city": "Batam",
            "address": "Jl. Yos Sudarso, Baloi Indah, Kec. Lubuk Baja, Kota Batam, Kepulauan Riau 29444",
            "latlng": "1.1475127360972974, 104.02244097259471",
            "grade": "A",
            "facility": "3S"
        },
        {
            "no": "108",
            "dealer_name": "PT Rodamas Makmur Motor",
            "status": "Branch",
            "province": "KEPULAUAN RIAU",
            "city": "Tanjung Pandan",
            "address": "Jl. D.I. Panjaitan, no. 11 - 12, Kilometer 9, Kota Tanjung Pinang, Kepulauan Riau  Kode Pos. 29125",
            "latlng": "-2.7418514010889994, 107.66565350127466",
            "grade": null,
            "facility": "1S"
        },
        {
            "no": "109",
            "dealer_name": "PT Persada Bangka Raya",
            "status": "Main Dealer",
            "province": "KEPULAUAN BANGKA BELITUNG",
            "city": "Pangkal Pinang",
            "address": "Jl. Raya Koba KM 8,5 Desa Beluluk, Kec. Pangkalan Baru - Bangka Tengah",
            "latlng": "-2.185133719190226, 106.13297052601678",
            "grade": "C",
            "facility": "3S"
        },
        {
            "no": "110",
            "dealer_name": "PT Persada Bangka Raya",
            "status": "Branch",
            "province": "KEPULAUAN BANGKA BELITUNG",
            "city": "Tanjung Pandan",
            "address": "Jl. Jend. Sudirman, Perawas, Kec. Tj. Pandan, Kabupaten Belitung, Kepulauan Bangka Belitung 33413",
            "latlng": "-2.7418514010889994, 107.66565350127466",
            "grade": "C",
            "facility": "3S"
        },
        {
            "no": "111",
            "dealer_name": "PT Antasena Agung Jaya",
            "status": "Main Dealer",
            "province": "KALIMANTAN TIMUR",
            "city": "Balikpapan AAJ",
            "address": "Jl. Soekarno Hatta KM 10.5 No.90. Kel. Karang Joang. Kec. Balikpapan Utara, Balikpapan 76127",
            "latlng": "-1.1837746148018709, 116.88521735299933",
            "grade": "A",
            "facility": "3S"
        },
        {
            "no": "112",
            "dealer_name": "PT Antasena Agung Jaya",
            "status": "Branch",
            "province": "KALIMANTAN TIMUR",
            "city": "Samarinda AAJ",
            "address": "Jl. Jend. S. Parman No. 12 Kelurahan Sidodadi, Kecamatan Samarinda Ulu, Kotamadya Samarinda.",
            "latlng": "-0.47794244287323284, 117.15338469745072",
            "grade": "C",
            "facility": "3S"
        },
        {
            "no": "113",
            "dealer_name": "PT Prima Putra Kaltim",
            "status": "Main Dealer",
            "province": "KALIMANTAN TIMUR",
            "city": "Samarinda PPK",
            "address": "Jl. HM. Rifaddin No.99 (Depan Universitas Terbuka) RT.24 Kel. Hareba Baru Samarinda Seberang",
            "latlng": "-0.5530878914400232, 117.1145757453483",
            "grade": "A",
            "facility": "3S"
        },
        {
            "no": "114",
            "dealer_name": "PT Prima Putra Kaltim",
            "status": "Branch",
            "province": "KALIMANTAN TIMUR",
            "city": "Berau",
            "address": "Jl. Sultan Agung No.104, Rinding, Kec. Tlk. Bayur, Kabupaten Berau, Kalimantan Timur 77352",
            "latlng": "2.1524404496227745, 117.45329567168811",
            "grade": "B",
            "facility": "2S"
        },
        {
            "no": "115",
            "dealer_name": "PT Prima Putra Kaltim",
            "status": "Branch",
            "province": "KALIMANTAN UTARA",
            "city": "Bulungan",
            "address": "Jl. Jelarai raya, tj.selor hilir kec. Tanjung selor kab. Bulungan, kalimantan utara 77211",
            "latlng": "2.8404272810541586, 117.40109039123976",
            "grade": "B",
            "facility": "2S"
        },
        {
            "no": "116",
            "dealer_name": "PT Kumala Motor Sejahtera Bersama",
            "status": "Main Dealer",
            "province": "KALIMANTAN TIMUR",
            "city": "Balikpapan KMB",
            "address": "Jl. Soekarno Hatta No.KM 25, Karang Joang, Kec. Balikpapan Utara, Kota Balikpapan, Kalimantan Timur 76125",
            "latlng": "-1.0527758682401616, 116.91249597892896",
            "grade": "A",
            "facility": "3S"
        },
        {
            "no": "117",
            "dealer_name": "PT Kumala Motor Sejahtera Bersama",
            "status": "Branch",
            "province": "KALIMANTAN TIMUR",
            "city": "Samarinda KMB",
            "address": "Jl. D.I. Panjaitan No.2, Sungai Pinang Dalam, Kec. Sungai Pinang, Kota Samarinda, Kalimantan Timur 75243",
            "latlng": "-0.4386557744449871, 117.18146208794052",
            "grade": "C",
            "facility": "3S"
        },
        {
            "no": "118",
            "dealer_name": "PT Kumala Motor Sejahtera Bersama",
            "status": "Branch",
            "province": "KALIMANTAN TIMUR",
            "city": "Penajam Paser Utara",
            "address": "Jl. Provinsi KM. 17 - Petung",
            "latlng": "-1.3588871255791946, 116.65936369718739",
            "grade": "B",
            "facility": "2S"
        },
        {
            "no": "119",
            "dealer_name": "PT Kumala Motor Sejahtera Bersama",
            "status": "Branch",
            "province": "KALIMANTAN TIMUR",
            "city": "Sepaku",
            "address": "Bukit Raya, Sepaku, Kabupaten Penajam Paser Utara, East Kalimantan 76147",
            "latlng": "-0.917200421229485, 116.74606536090594",
            "grade": "B",
            "facility": "2S"
        },
        {
            "no": "120",
            "dealer_name": "PT Automobil Borneo Perdana",
            "status": "Main Dealer",
            "province": "KALIMANTAN BARAT",
            "city": "Pontianak",
            "address": "Jl. Ahmad Yani II No. 8A, Pontianak",
            "latlng": "-0.07450105221619094, 109.364884837655",
            "grade": "A",
            "facility": "3S"
        },
        {
            "no": "121",
            "dealer_name": "PT Automobil Borneo Perdana",
            "status": "Branch",
            "province": "KALIMANTAN BARAT",
            "city": "Sintang",
            "address": "Jl. MT Haryono Km 8 Sungai Ukoi Sintang",
            "latlng": "0.013565590190913928, 111.45245529532669",
            "grade": "B",
            "facility": "3S"
        },
        {
            "no": "122",
            "dealer_name": "PT Automobil Borneo Perdana",
            "status": "Branch",
            "province": "KALIMANTAN BARAT",
            "city": "Ketapang",
            "address": "Jl.Gatot Subroto No.8A Ketapang",
            "latlng": "-1.8065659751306054, 109.96690608183643",
            "grade": "C",
            "facility": "3S"
        },
        {
            "no": "123",
            "dealer_name": "PT Automobil Borneo Perdana",
            "status": "Branch",
            "province": "KALIMANTAN BARAT",
            "city": "Sosok",
            "address": "Jl. Raya Tanjung Sosok, RT/RW 003, Dusun Tanjung, Desa Binjai, Kec. Tayan Hulu, Kabupaten Sanggau, Kalimantan Barat",
            "latlng": "0.2913383312493591, 110.27527843929629",
            "grade": "C",
            "facility": "3S"
        },
        {
            "no": "124",
            "dealer_name": "PT Automobil Borneo Perdana",
            "status": "Branch",
            "province": "KALIMANTAN BARAT",
            "city": "Sebawi",
            "address": "Jl. Pembangunan, Sebawi, Kec. Sebawi, Kabupaten Sambas, Kalimantan Barat 79462",
            "latlng": "1.3088252230158, 109.22603870358098",
            "grade": "B",
            "facility": "2S"
        },
        {
            "no": "125",
            "dealer_name": "PT Automobil Borneo Perdana",
            "status": "Branch",
            "province": "KALIMANTAN BARAT",
            "city": "Singkawang",
            "address": "Sungai Garam Hili, Singkawang Utara, Kota Singkawang, Kalimantan Barat 79115.",
            "latlng": "0.9368841278752056, 108.98152966649145",
            "grade": null,
            "facility": "1S"
        },
        {
            "no": "126",
            "dealer_name": "PT Auto Mobil Prima",
            "status": "Main Dealer",
            "province": "KALIMANTAN TENGAH",
            "city": "Sampit",
            "address": "Jl. Jend. Sudirman KM.2,5 No. 53 Sampit Kel. Mentawa Baru Hulu, Ketapang, Mentawa Baru/Ketapan, East Kotawaringin Regency, Central Kalimantan 74312",
            "latlng": "-2.537570749467856, 112.92528648183877",
            "grade": "A",
            "facility": "3S"
        },
        {
            "no": "127",
            "dealer_name": "PT Auto Mobil Prima",
            "status": "Branch",
            "province": "KALIMANTAN TENGAH",
            "city": "Pangkalan Bun",
            "address": "Jl.Ahmad Yani KM.22 Sungai Rangit SP 4, Pangkalan Durin, Pangkalan Lada, Kabupaten Kotawaringin Barat, Kalimantan Tengah 74184",
            "latlng": "-2.5975150343965154, 111.74075089748182",
            "grade": "B",
            "facility": "3S"
        },
        {
            "no": "128",
            "dealer_name": "PT Auto Mobil Prima",
            "status": "Branch",
            "province": "KALIMANTAN TENGAH",
            "city": "Palangkaraya",
            "address": "Jl. RTA Milono KM 2, 5, Langkai, Kec. Pahandut, Kota Palangka Raya, Kalimantan Tengah 74874",
            "latlng": "-2.2453050239833647, 113.92002783765854",
            "grade": "C",
            "facility": "3S"
        },
        {
            "no": "129",
            "dealer_name": "PT Auto Mobil Prima",
            "status": "Branch",
            "province": "KALIMANTAN TENGAH",
            "city": "Barito Utara",
            "address": "Jl. Negara No.km 5, Jingah, Kec. Teweh Baru, Kabupaten Barito Utara, Kalimantan Tengah 73814",
            "latlng": "-0.9763473986224382, 114.88749710938637",
            "grade": "A",
            "facility": "2S"
        },
        {
            "no": "130",
            "dealer_name": "PT Mitra Profitamas Motor",
            "status": "Main Dealer",
            "province": "KALIMANTAN SELATAN",
            "city": "Banjarmasin",
            "address": "Jl. A. Yani km. 12,2 Kel. Kertak Hanyar, Kab. Banjar, Kec. Gambut. Banjarmasin",
            "latlng": "-3.1201808396486967, 115.07940051098842",
            "grade": "A",
            "facility": "3S"
        },
        {
            "no": "131",
            "dealer_name": "PT Mitra Profitamas Motor",
            "status": "Branch",
            "province": "KALIMANTAN SELATAN",
            "city": "Batulicin",
            "address": "Jl. Raya Batulicin RT. 17 No. 31, Kab. Tanah Bumbu, Batu Licin",
            "latlng": "-3.408543841341704, 115.99739499935596",
            "grade": null,
            "facility": "1S"
        },
        {
            "no": "132",
            "dealer_name": "PT Mitra Profitamas Motor",
            "status": "Branch",
            "province": "KALIMANTAN SELATAN",
            "city": "Rantau",
            "address": "Jl. A. Yani Km. 94 Desa Pulau Pinang, Rantau Banjar",
            "latlng": "-3.0777881123620694, 115.09926913371379",
            "grade": "B",
            "facility": "3S"
        },
        {
            "no": "133",
            "dealer_name": "PT Mitra Profitamas Motor",
            "status": "Branch",
            "province": "KALIMANTAN SELATAN",
            "city": "Sebamban",
            "address": "Mekar Jaya, Kec. Angsana, Kabupaten Tanah Bumbu, Kalimantan Selatan 72275",
            "latlng": "-3.652450800987252, 115.75130584514062",
            "grade": "C",
            "facility": "3S"
        },
        {
            "no": "134",
            "dealer_name": "PT Mitra Profitamas Motor",
            "status": "Branch",
            "province": "KALIMANTAN SELATAN",
            "city": "Tabalong",
            "address": "Jl. A. Yani, Mabuun, Kec. Murung Pudak, Kabupaten Tabalong, Kalimantan Selatan 71571",
            "latlng": "-2.168756271061191, 115.43573203116435",
            "grade": "C",
            "facility": "3S"
        },
        {
            "no": "135",
            "dealer_name": "PT. Hino Motors Sales Indonesia",
            "status": "Branch",
            "province": "KALIMANTAN TIMUR",
            "city": "Balikpapan HMSI",
            "address": "Jl. Pulau Balang KM13, Kelurahan Karang Joang, Kecamatan Balikpapan Utara. Balikpapan-Indonesia 76127",
            "latlng": "-1.1615758863223085, 116.85058657998431",
            "grade": "A",
            "facility": "2S"
        },
        {
            "no": "136",
            "dealer_name": "PT Kumala Motor Sejahtera",
            "status": "Main Dealer",
            "province": "SULAWESI SELATAN",
            "city": "Ujung Pandang",
            "address": "Jl. Ir. Sutami No. 22, Makassar, Sulawesi Selatan",
            "latlng": "-5.098376236630678, 119.4590512866283",
            "grade": "A",
            "facility": "3S"
        },
        {
            "no": "137",
            "dealer_name": "PT Kumala Motor Sejahtera",
            "status": "Branch",
            "province": "SULAWESI BARAT",
            "city": "Mamuju",
            "address": "Jl. Jend. Sudirman, Kel. Simboro, Kab. Mamuju",
            "latlng": "-2.6860300397446055, 118.8694728601269",
            "grade": "C",
            "facility": "3S"
        },
        {
            "no": "138",
            "dealer_name": "PT Kumala Motor Sejahtera",
            "status": "Branch",
            "province": "SULAWESI SELATAN",
            "city": "Pare Pare",
            "address": "Jl. H.A.M. Arsyad No. 237, Kel. Watang Soreang, Kec. Soreang, Kota Pare Pare, Sulawesi Selatan",
            "latlng": "-3.987389425493766, 119.63677881101796",
            "grade": "C",
            "facility": "3S"
        },
        {
            "no": "139",
            "dealer_name": "PT Kumala Motor Sejahtera",
            "status": "Branch",
            "province": "SULAWESI SELATAN",
            "city": "Gowa",
            "address": "Jl. Poros Palangga raya No. 32 Poros Gowa Takalar, Sungguminasa - Sulsel",
            "latlng": "-5.2147630148393205, 119.4497081571018",
            "grade": null,
            "facility": "1S"
        },
        {
            "no": "140",
            "dealer_name": "PT Kumala Motor Sejahtera",
            "status": "Branch",
            "province": "SULAWESI SELATAN",
            "city": "Sidrap",
            "address": "Jl. Jend. Sudirman No. 273 Sidrap",
            "latlng": "-3.916040550633683, 119.77278726650157",
            "grade": "C",
            "facility": "3S"
        },
        {
            "no": "141",
            "dealer_name": "PT Kumala Motor Sejahtera",
            "status": "Branch",
            "province": "SULAWESI SELATAN",
            "city": "Palopo",
            "address": "Jl. Andi Djemma No. 139 (d/h Jl. Sudirman) -  Kelurahan Binturu Palopo – Sulsel",
            "latlng": "-3.0119266306932926, 120.20459025300474",
            "grade": "B",
            "facility": "3S"
        },
        {
            "no": "142",
            "dealer_name": "PT Kumala Motor Sejahtera",
            "status": "Branch",
            "province": "SULAWESI SELATAN",
            "city": "Makassar",
            "address": "Jl. Kumala No. 1 Makassar",
            "latlng": "-5.163100465368357, 119.42138928948098",
            "grade": "C",
            "facility": "3S"
        },
        {
            "no": "143",
            "dealer_name": "PT Kumala Motor Sejahtera",
            "status": "Branch",
            "province": "SULAWESI SELATAN",
            "city": "Bone",
            "address": "Jl. MT. Haryono (poros pasar sentral palakka) no.5",
            "latlng": "-4.537928410613449, 120.29413261068447",
            "grade": "C",
            "facility": "3S"
        },
        {
            "no": "144",
            "dealer_name": "PT Kumala Motor Sejahtera",
            "status": "Branch",
            "province": "SULAWESI SELATAN",
            "city": "Bulukumba",
            "address": "Jl. Kusuma Bangsa, Bulukumba, Sulawesi Selatan",
            "latlng": "-5.5366174339393535, 120.19608751069161",
            "grade": "C",
            "facility": "3S"
        },
        {
            "no": "145",
            "dealer_name": "PT Kumala Motor Sejahtera Abadi",
            "status": "Main Dealer",
            "province": "SULAWESI TENGGARA",
            "city": "Kendari",
            "address": "Jl. Achmad Yani, Bonggoeya - Wua Wua, Kendari",
            "latlng": "-3.9976988519447514, 122.49958039954984",
            "grade": "A",
            "facility": "3S"
        },
        {
            "no": "146",
            "dealer_name": "PT Kumala Motor Sejahtera Abadi",
            "status": "Branch",
            "province": "SULAWESI TENGGARA",
            "city": "Baubau",
            "address": "Jl. Betoambari No.117, Bone-Bone, Batupoara, Kota Bau-Bau, Sulawesi Tenggara 93714",
            "latlng": "-5.46753773987508, 122.59173492457694",
            "grade": "C",
            "facility": "3S"
        },
        {
            "no": "147",
            "dealer_name": "PT Nenggapratama Internusa",
            "status": "Main Dealer",
            "province": "SULAWESI UTARA",
            "city": "Manado HO",
            "address": "Jl. Raya Manado - Bitung, Watutumou III Kec. Kalawat, Minut - Manado",
            "latlng": "1.4713314375013071, 124.91963155596748",
            "grade": "A",
            "facility": "3S"
        },
        {
            "no": "148",
            "dealer_name": "PT Nenggapratama Internusa",
            "status": "Branch",
            "province": "SULAWESI UTARA",
            "city": "Manado",
            "address": "Jl. Ring Road, Bumi Nyiur, Wanea, Kota Manado, Sulawesi Utara (Sebelah Koran Sindo Manado)",
            "latlng": "1.4430735801533898, 124.8518949830465",
            "grade": "C",
            "facility": "3S"
        },
        {
            "no": "149",
            "dealer_name": "PT Nenggapratama Internusa",
            "status": "Branch",
            "province": "SULAWESI UTARA",
            "city": "Kota Mobagu",
            "address": "Jl. KS Tubun Kelurahan Matali Kecamatan Kotamobagu Timur",
            "latlng": "0.72374565470122, 124.30969585349033",
            "grade": "C",
            "facility": "3S"
        },
        {
            "no": "150",
            "dealer_name": "PT Nenggapratama Prima Nusantara",
            "status": "Main Dealer",
            "province": "GORONTALO",
            "city": "Gorontalo",
            "address": "Jl. Prof. John Ario Katili, Tanggikiki, Sipatana, Gorontalo",
            "latlng": "0.568052631620143, 123.06720089384616",
            "grade": "A",
            "facility": "3S"
        },
        {
            "no": "151",
            "dealer_name": "PT Nenggapratama Prima Nusantara",
            "status": "Branch",
            "province": "GORONTALO",
            "city": "Marisa",
            "address": "Jl. Trans Sulawesi Marisa, Marisa, Kab. Bualemo",
            "latlng": "0.472154068958066, 121.93157605114756",
            "grade": "C",
            "facility": "3S"
        },
        {
            "no": "152",
            "dealer_name": "PT Nenggapratama Prima Nusantara",
            "status": "Branch",
            "province": "GORONTALO",
            "city": "Isimu",
            "address": "Jln. Marten Liputo Kompleks Gerbang Bandara Jalaluddin, Datahu, Kec. Tibawa, Kabupaten Gorontalo, Gorontalo 96251",
            "latlng": "0.6497584419180306, 122.84422272189602",
            "grade": "A",
            "facility": "2S"
        },
        {
            "no": "153",
            "dealer_name": "PT Patrako Motor Abadi",
            "status": "Main Dealer",
            "province": "SULAWESI TENGAH",
            "city": "Palu",
            "address": "Jl. RE Martadinata Trans Sulawesi Km. 5, Tondo - Palu Timur",
            "latlng": "-0.850568805721322, 119.8838090625908",
            "grade": "A",
            "facility": "3S"
        },
        {
            "no": "154",
            "dealer_name": "PT Patrako Motor Abadi",
            "status": "Branch",
            "province": "SULAWESI TENGAH",
            "city": "Luwuk",
            "address": "Jl. Jend. Sudirman No.129, Bukit Mambual, Luwuk, Kabupaten Banggai, Sulawesi Tengah",
            "latlng": "-0.9804851257949826, 122.78657817751879",
            "grade": "C",
            "facility": "3S"
        },
        {
            "no": "155",
            "dealer_name": "PT Patrako Motor Abadi",
            "status": "Branch",
            "province": "SULAWESI TENGAH",
            "city": "Morowali",
            "address": "Jl. Trans Sulawesi - Bahodopi (Ruko PMS)",
            "latlng": "-2.797671950541252, 122.14984236543255",
            "grade": "C",
            "facility": "3S"
        },
        {
            "no": "156",
            "dealer_name": "PT Patrako Motor Abadi",
            "status": "Branch",
            "province": "SULAWESI TENGAH",
            "city": "Parigi Mutong",
            "address": "Bantaya, Parigi, Kabupaten Parigi Moutong, Sulawesi Tengah 94471",
            "latlng": "-0.8083197867985129, 120.1735457767404",
            "grade": "C",
            "facility": "3S"
        },
        {
            "no": "157",
            "dealer_name": "PT Nengmeypratama Malut Maluku",
            "status": "Main Dealer",
            "province": "MALUKU",
            "city": "Ambon",
            "address": "Jl. Wolter Monginsidi No 15 Lateri III RT 001/005 - Ambon",
            "latlng": "-3.6376330004811104, 128.245839835825",
            "grade": "A",
            "facility": "3S"
        },
        {
            "no": "158",
            "dealer_name": "PT Nengmeypratama Malut Maluku",
            "status": "Branch",
            "province": "MALUKU UTARA",
            "city": "Ternate",
            "address": "Jl. Juma Puasa, Kel. Santiong, Ternate Tengah, Kota Ternate, Maluku Utara, 97722",
            "latlng": "0.7923879982250509, 127.38548240002298",
            "grade": "C",
            "facility": "3S"
        },
        {
            "no": "159",
            "dealer_name": "PT Nengmeypratama Malut Maluku",
            "status": "Branch",
            "province": "MALUKU UTARA",
            "city": "Halmahera",
            "address": "Ruko 7 No.4, Jl. Raya Wosia Km.2, Tobelo",
            "latlng": "1.712511919013846, 128.01062472190307",
            "grade": "C",
            "facility": "3S"
        },
        {
            "no": "160",
            "dealer_name": "PT. Hino Motors Sales Indonesia",
            "status": "Branch",
            "province": "SULAWESI TENGAH",
            "city": "Morowali",
            "address": "Desa Bahomakmur. Kec. Bahodopi. Kota Bungu. Morowali-Sulawesi Tengah",
            "latlng": "-2.797671950541252, 122.14984236543255",
            "grade": "A",
            "facility": "2S"
        },
        {
            "no": "161",
            "dealer_name": "PT Kreasi Auto Kencana",
            "status": "Main Dealer",
            "province": "PAPUA BARAT",
            "city": "Sorong",
            "address": "Jl. Basuki Rahmat Km 9.5 Kel.Sawagumu Sorong Timur 98419",
            "latlng": "-0.8900699992142682, 131.313431309718",
            "grade": "A",
            "facility": "3S"
        },
        {
            "no": "162",
            "dealer_name": "PT Kreasi Auto Kencana",
            "status": "Branch",
            "province": "PAPUA",
            "city": "Jayapura",
            "address": "Jl. Raya Abepura,Kelurahan Entrop, Distrik Jayapura Selatan",
            "latlng": "-2.571114282619479, 140.69292305300286",
            "grade": "C",
            "facility": "3S"
        },
        {
            "no": "163",
            "dealer_name": "PT Kreasi Auto Kencana",
            "status": "Branch",
            "province": "PAPUA BARAT",
            "city": "Manokwari",
            "address": "Jl. Trikora Wosi (Ruko Hijau), Manokwari Barat",
            "latlng": "-0.865110737133024, 134.0544093381275",
            "grade": null,
            "facility": "1S"
        }
    ]
}